{
  "version": 2,
  "sido": [
    {
      "name": "강원특별자치도",
      "kind": "sido",
      "children": [
        {
          "name": "강릉시",
          "kind": "si",
          "children": [
            {
              "name": "강동면",
              "kind": "myeon",
              "children": [
                {
                  "name": "모전리",
                  "kind": "ri",
                  "children": [],
                  "lat": 37.709849,
                  "lng": 128.974441
                },
                {
                  "name": "산성우리",
                  "kind": "ri",
                  "children": [],
                  "lat": 37.663184,
                  "lng": 129.003485
                },
                {
                  "name": "상시동리",
                  "kind": "ri",
                  "children": [],
                  "lat": 37.724952,
                  "lng": 128.948471
                },
                {
                  "name": "심곡리",
                  "kind": "ri",
                  "children": [],
                  "lat": 37.667834,
                  "lng": 129.044438
                },
                {
                  "name": "안인리",
                  "kind": "ri",
                  "children": [],
                  "lat": 37.732928,
                  "lng": 128.976245
                },
                {
                  "name": "안인진리",
                  "kind": "ri",
                  "children": [],
                  "lat": 37.725547,
                  "lng": 128.990023
                },
                {
                  "name": "언별리",
                  "kind": "ri",
                  "children": [],
                  "lat": 37.662023,
                  "lng": 128.92348
                },
                {
                  "name": "임곡리",
                  "kind": "ri",
                  "children": [],
                  "lat": 37.668124,
                  "lng": 128.965303
                },
                {
                  "name": "정동진리",
                  "kind": "ri",
                  "children": [],
                  "lat": 37.691832,
                  "lng": 129.021644
                },
                {
                  "name": "하시동리",
                  "kind": "ri",
                  "children": [],
                  "lat": 37.741111,
                  "lng": 128.962552
                }
              ],
              "lat": 37.679274,
              "lng": 128.968759
            },
            {
              "name": "강문동",
              "kind": "dong",
              "children": [],
              "lat": 37.793317,
              "lng": 128.917396
            },
            {
              "name": "견소동",
              "kind": "dong",
              "children": [],
              "lat": 37.772677,
              "lng": 128.943058
            },
            {
              "name": "교동",
              "kind": "dong",
              "children": [],
              "lat": 37.767433,
              "lng": 128.88807
            },
            {
              "name": "구정면",
              "kind": "myeon",
              "children": [
                {
                  "name": "구정리",
                  "kind": "ri",
                  "children": [],
                  "lat": 37.691459,
                  "lng": 128.865872
                },
                {
                  "name": "금광리",
                  "kind": "ri",
                  "children": [],
                  "lat": 37.707279,
                  "lng": 128.91616
                },
                {
                  "name": "덕현리",
                  "kind": "ri",
                  "children": [],
                  "lat": 37.708783,
                  "lng": 128.930297
                },
                {
                  "name": "어단리",
                  "kind": "ri",
                  "children": [],
                  "lat": 37.680903,
                  "lng": 128.896151
                },
                {
                  "name": "여찬리",
                  "kind": "ri",
                  "children": [],
                  "lat": 37.721478,
                  "lng": 128.876272
                },
                {
                  "name": "제비리",
                  "kind": "ri",
                  "children": [],
                  "lat": 37.718532,
                  "lng": 128.854472
                },
                {
                  "name": "학산리",
                  "kind": "ri",
                  "children": [],
                  "lat": 37.705813,
                  "lng": 128.88897
                }
              ],
              "lat": 37.698497,
              "lng": 128.88504
            },
            {
              "name": "금학동",
              "kind": "dong",
              "children": [],
              "lat": 37.753711,
              "lng": 128.896391
            },
            {
              "name": "난곡동",
              "kind": "dong",
              "children": [],
              "lat": 37.790995,
              "lng": 128.876201
            },
            {
              "name": "남문동",
              "kind": "dong",
              "children": [],
              "lat": 37.74946,
              "lng": 128.88947
            },
            {
              "name": "남항진동",
              "kind": "dong",
              "children": [],
              "lat": 37.759136,
              "lng": 128.955622
            },
            {
              "name": "내곡동",
              "kind": "dong",
              "children": [],
              "lat": 37.737383,
              "lng": 128.881716
            },
            {
              "name": "노암동",
              "kind": "dong",
              "children": [],
              "lat": 37.743637,
              "lng": 128.900643
            },
            {
              "name": "담산동",
              "kind": "dong",
              "children": [],
              "lat": 37.719899,
              "lng": 128.901593
            },
            {
              "name": "대전동",
              "kind": "dong",
              "children": [],
              "lat": 37.792221,
              "lng": 128.852705
            },
            {
              "name": "두산동",
              "kind": "dong",
              "children": [],
              "lat": 37.764322,
              "lng": 128.929445
            },
            {
              "name": "명주동",
              "kind": "dong",
              "children": [],
              "lat": 37.750889,
              "lng": 128.891391
            },
            {
              "name": "박월동",
              "kind": "dong",
              "children": [],
              "lat": 37.72509,
              "lng": 128.910962
            },
            {
              "name": "병산동",
              "kind": "dong",
              "children": [],
              "lat": 37.759646,
              "lng": 128.944662
            },
            {
              "name": "사천면",
              "kind": "myeon",
              "children": [
                {
                  "name": "노동리",
                  "kind": "ri",
                  "children": [],
                  "lat": 37.811683,
                  "lng": 128.818394
                },
                {
                  "name": "덕실리",
                  "kind": "ri",
                  "children": [],
                  "lat": 37.807663,
                  "lng": 128.841954
                },
                {
                  "name": "미노리",
                  "kind": "ri",
                  "children": [],
                  "lat": 37.827037,
                  "lng": 128.860433
                },
                {
                  "name": "방동리",
                  "kind": "ri",
                  "children": [],
                  "lat": 37.818587,
                  "lng": 128.863729
                },
                {
                  "name": "사기막리",
                  "kind": "ri",
                  "children": [],
                  "lat": 37.776846,
                  "lng": 128.772454
                },
                {
                  "name": "사천진리",
                  "kind": "ri",
                  "children": [],
                  "lat": 37.841617,
                  "lng": 128.867441
                },
                {
                  "name": "산대월리",
                  "kind": "ri",
                  "children": [],
                  "lat": 37.813717,
                  "lng": 128.874967
                },
                {
                  "name": "석교리",
                  "kind": "ri",
                  "children": [],
                  "lat": 37.831527,
                  "lng": 128.821993
                },
                {
                  "name": "판교리",
                  "kind": "ri",
                  "children": [],
                  "lat": 37.838808,
                  "lng": 128.853578
                }
              ],
              "lat": 37.799866,
              "lng": 128.806488
            },
            {
              "name": "성남동",
              "kind": "dong",
              "children": [],
              "lat": 37.752771,
              "lng": 128.899564
            },
            {
              "name": "성내동",
              "kind": "dong",
              "children": [],
              "lat": 37.752425,
              "lng": 128.893413
            },
            {
              "name": "성산면",
              "kind": "myeon",
              "children": [
                {
                  "name": "관음리",
                  "kind": "ri",
                  "children": [],
                  "lat": 37.73852,
                  "lng": 128.826763
                },
                {
                  "name": "구산리",
                  "kind": "ri",
                  "children": [],
                  "lat": 37.720888,
                  "lng": 128.829085
                },
                {
                  "name": "금산리",
                  "kind": "ri",
                  "children": [],
                  "lat": 37.73773,
                  "lng": 128.847167
                },
                {
                  "name": "보광리",
                  "kind": "ri",
                  "children": [],
                  "lat": 37.747628,
                  "lng": 128.780172
                },
                {
                  "name": "산북리",
                  "kind": "ri",
                  "children": [],
                  "lat": 37.701623,
                  "lng": 128.837914
                },
                {
                  "name": "송암리",
                  "kind": "ri",
                  "children": [],
                  "lat": 37.776144,
                  "lng": 128.829545
                },
                {
                  "name": "어흘리",
                  "kind": "ri",
                  "children": [],
                  "lat": 37.71214,
                  "lng": 128.781826
                },
                {
                  "name": "오봉리",
                  "kind": "ri",
                  "children": [],
                  "lat": 37.705325,
                  "lng": 128.814223
                },
                {
                  "name": "위촌리",
                  "kind": "ri",
                  "children": [],
                  "lat": 37.757928,
                  "lng": 128.836866
                }
              ],
              "lat": 37.731503,
              "lng": 128.803075
            },
            {
              "name": "송정동",
              "kind": "dong",
              "children": [],
              "lat": 37.777221,
              "lng": 128.926974
            },
            {
              "name": "신석동",
              "kind": "dong",
              "children": [],
              "lat": 37.730233,
              "lng": 128.923014
            },
            {
              "name": "안현동",
              "kind": "dong",
              "children": [],
              "lat": 37.805479,
              "lng": 128.884121
            },
            {
              "name": "연곡면",
              "kind": "myeon",
              "children": [
                {
                  "name": "동덕리",
                  "kind": "ri",
                  "children": [],
                  "lat": 37.852083,
                  "lng": 128.841062
                },
                {
                  "name": "방내리",
                  "kind": "ri",
                  "children": [],
                  "lat": 37.862368,
                  "lng": 128.828247
                },
                {
                  "name": "삼산리",
                  "kind": "ri",
                  "children": [],
                  "lat": 37.825235,
                  "lng": 128.655955
                },
                {
                  "name": "송림리",
                  "kind": "ri",
                  "children": [],
                  "lat": 37.852287,
                  "lng": 128.811101
                },
                {
                  "name": "신왕리",
                  "kind": "ri",
                  "children": [],
                  "lat": 37.807947,
                  "lng": 128.758249
                },
                {
                  "name": "영진리",
                  "kind": "ri",
                  "children": [],
                  "lat": 37.867533,
                  "lng": 128.840597
                },
                {
                  "name": "유등리",
                  "kind": "ri",
                  "children": [],
                  "lat": 37.836992,
                  "lng": 128.755791
                },
                {
                  "name": "퇴곡리",
                  "kind": "ri",
                  "children": [],
                  "lat": 37.85372,
                  "lng": 128.730254
                },
                {
                  "name": "행정리",
                  "kind": "ri",
                  "children": [],
                  "lat": 37.85685,
                  "lng": 128.779797
                }
              ],
              "lat": 37.828095,
              "lng": 128.694477
            },
            {
              "name": "옥계면",
              "kind": "myeon",
              "children": [
                {
                  "name": "금진리",
                  "kind": "ri",
                  "children": [],
                  "lat": 37.644628,
                  "lng": 129.037742
                },
                {
                  "name": "낙풍리",
                  "kind": "ri",
                  "children": [],
                  "lat": 37.624334,
                  "lng": 129.013446
                },
                {
                  "name": "남양리",
                  "kind": "ri",
                  "children": [],
                  "lat": 37.563573,
                  "lng": 129.015169
                },
                {
                  "name": "도직리",
                  "kind": "ri",
                  "children": [],
                  "lat": 37.605039,
                  "lng": 129.062256
                },
                {
                  "name": "북동리",
                  "kind": "ri",
                  "children": [],
                  "lat": 37.620502,
                  "lng": 128.957003
                },
                {
                  "name": "산계리",
                  "kind": "ri",
                  "children": [],
                  "lat": 37.580419,
                  "lng": 128.948909
                },
                {
                  "name": "조산리",
                  "kind": "ri",
                  "children": [],
                  "lat": 37.623211,
                  "lng": 129.052083
                },
                {
                  "name": "주수리",
                  "kind": "ri",
                  "children": [],
                  "lat": 37.615147,
                  "lng": 129.049863
                },
                {
                  "name": "천남리",
                  "kind": "ri",
                  "children": [],
                  "lat": 37.601592,
                  "lng": 129.040894
                },
                {
                  "name": "현내리",
                  "kind": "ri",
                  "children": [],
                  "lat": 37.608482,
                  "lng": 129.028395
                }
              ],
              "lat": 37.592328,
              "lng": 128.981488
            },
            {
              "name": "옥천동",
              "kind": "dong",
              "children": [],
              "lat": 37.758548,
              "lng": 128.901586
            },
            {
              "name": "왕산면",
              "kind": "myeon",
              "children": [
                {
                  "name": "고단리",
                  "kind": "ri",
                  "children": [],
                  "lat": 37.532766,
                  "lng": 128.82148
                },
                {
                  "name": "대기리",
                  "kind": "ri",
                  "children": [],
                  "lat": 37.582017,
                  "lng": 128.756763
                },
                {
                  "name": "도마리",
                  "kind": "ri",
                  "children": [],
                  "lat": 37.659702,
                  "lng": 128.835862
                },
                {
                  "name": "목계리",
                  "kind": "ri",
                  "children": [],
                  "lat": 37.619149,
                  "lng": 128.862936
                },
                {
                  "name": "송현리",
                  "kind": "ri",
                  "children": [],
                  "lat": 37.564605,
                  "lng": 128.843011
                },
                {
                  "name": "왕산리",
                  "kind": "ri",
                  "children": [],
                  "lat": 37.654433,
                  "lng": 128.78218
                }
              ],
              "lat": 37.603045,
              "lng": 128.798069
            },
            {
              "name": "용강동",
              "kind": "dong",
              "children": [],
              "lat": 37.753426,
              "lng": 128.890554
            },
            {
              "name": "운산동",
              "kind": "dong",
              "children": [],
              "lat": 37.726776,
              "lng": 128.933383
            },
            {
              "name": "운정동",
              "kind": "dong",
              "children": [],
              "lat": 37.78823,
              "lng": 128.895414
            },
            {
              "name": "월호평동",
              "kind": "dong",
              "children": [],
              "lat": 37.743805,
              "lng": 128.940903
            },
            {
              "name": "유산동",
              "kind": "dong",
              "children": [],
              "lat": 37.737056,
              "lng": 128.913967
            },
            {
              "name": "유천동",
              "kind": "dong",
              "children": [],
              "lat": 37.766654,
              "lng": 128.860461
            },
            {
              "name": "임당동",
              "kind": "dong",
              "children": [],
              "lat": 37.755793,
              "lng": 128.89439
            },
            {
              "name": "입암동",
              "kind": "dong",
              "children": [],
              "lat": 37.757417,
              "lng": 128.916757
            },
            {
              "name": "장현동",
              "kind": "dong",
              "children": [],
              "lat": 37.72902,
              "lng": 128.894536
            },
            {
              "name": "저동",
              "kind": "dong",
              "children": [],
              "lat": 37.798829,
              "lng": 128.892674
            },
            {
              "name": "주문진읍",
              "kind": "eup",
              "children": [
                {
                  "name": "교항리",
                  "kind": "ri",
                  "children": [],
                  "lat": 37.877951,
                  "lng": 128.818257
                },
                {
                  "name": "삼교리",
                  "kind": "ri",
                  "children": [],
                  "lat": 37.883948,
                  "lng": 128.717904
                },
                {
                  "name": "장덕리",
                  "kind": "ri",
                  "children": [],
                  "lat": 37.880217,
                  "lng": 128.776492
                },
                {
                  "name": "주문리",
                  "kind": "ri",
                  "children": [],
                  "lat": 37.897758,
                  "lng": 128.81854
                },
                {
                  "name": "향호리",
                  "kind": "ri",
                  "children": [],
                  "lat": 37.900739,
                  "lng": 128.789805
                }
              ],
              "lat": 37.886684,
              "lng": 128.76236
            },
            {
              "name": "죽헌동",
              "kind": "dong",
              "children": [],
              "lat": 37.781002,
              "lng": 128.865936
            },
            {
              "name": "지변동",
              "kind": "dong",
              "children": [],
              "lat": 37.774865,
              "lng": 128.869674
            },
            {
              "name": "청량동",
              "kind": "dong",
              "children": [],
              "lat": 37.745044,
              "lng": 128.925388
            },
            {
              "name": "초당동",
              "kind": "dong",
              "children": [],
              "lat": 37.79075,
              "lng": 128.911525
            },
            {
              "name": "포남동",
              "kind": "dong",
              "children": [],
              "lat": 37.774098,
              "lng": 128.907972
            },
            {
              "name": "학동",
              "kind": "dong",
              "children": [],
              "lat": 37.754111,
              "lng": 128.931867
            },
            {
              "name": "홍제동",
              "kind": "dong",
              "children": [],
              "lat": 37.751047,
              "lng": 128.870742
            },
            {
              "name": "회산동",
              "kind": "dong",
              "children": [],
              "lat": 37.738291,
              "lng": 128.866004
            }
          ],
          "lat": 37.754085,
          "lng": 128.891274
        },
        {
          "name": "고성군",
          "kind": "gun",
          "children": [
            {
              "name": "간성읍",
              "kind": "eup",
              "children": [
                {
                  "name": "간촌리",
                  "kind": "ri",
                  "children": [],
                  "lat": 38.371199,
                  "lng": 128.447642
                },
                {
                  "name": "광산리",
                  "kind": "ri",
                  "children": [],
                  "lat": 38.375441,
                  "lng": 128.377161
                },
                {
                  "name": "교동리",
                  "kind": "ri",
                  "children": [],
                  "lat": 38.381465,
                  "lng": 128.439142
                },
                {
                  "name": "금수리",
                  "kind": "ri",
                  "children": [],
                  "lat": 38.364134,
                  "lng": 128.460179
                },
                {
                  "name": "동호리",
                  "kind": "ri",
                  "children": [],
                  "lat": 38.388804,
                  "lng": 128.482944
                },
                {
                  "name": "봉호리",
                  "kind": "ri",
                  "children": [],
                  "lat": 38.395969,
                  "lng": 128.472893
                },
                {
                  "name": "상리",
                  "kind": "ri",
                  "children": [],
                  "lat": 38.382536,
                  "lng": 128.463091
                },
                {
                  "name": "선유실리",
                  "kind": "ri",
                  "children": [],
                  "lat": 38.299967,
                  "lng": 128.41518
                },
                {
                  "name": "신안리",
                  "kind": "ri",
                  "children": [],
                  "lat": 38.379227,
                  "lng": 128.475548
                },
                {
                  "name": "어천리",
                  "kind": "ri",
                  "children": [],
                  "lat": 38.349795,
                  "lng": 128.42005
                },
                {
                  "name": "장신리",
                  "kind": "ri",
                  "children": [],
                  "lat": 38.337048,
                  "lng": 128.364354
                },
                {
                  "name": "진부리",
                  "kind": "ri",
                  "children": [],
                  "lat": 38.296356,
                  "lng": 128.341414
                },
                {
                  "name": "탑동리",
                  "kind": "ri",
                  "children": [],
                  "lat": 38.337068,
                  "lng": 128.449668
                },
                {
                  "name": "탑현리",
                  "kind": "ri",
                  "children": [],
                  "lat": 38.395209,
                  "lng": 128.3776
                },
                {
                  "name": "하리",
                  "kind": "ri",
                  "children": [],
                  "lat": 38.379403,
                  "lng": 128.467597
                },
                {
                  "name": "해상리",
                  "kind": "ri",
                  "children": [],
                  "lat": 38.390686,
                  "lng": 128.412006
                },
                {
                  "name": "흘리",
                  "kind": "ri",
                  "children": [],
                  "lat": 38.266583,
                  "lng": 128.385882
                }
              ],
              "lat": 38.332816,
              "lng": 128.391852
            },
            {
              "name": "거진읍",
              "kind": "eup",
              "children": [
                {
                  "name": "거진리",
                  "kind": "ri",
                  "children": [],
                  "lat": 38.448174,
                  "lng": 128.455282
                },
                {
                  "name": "냉천리",
                  "kind": "ri",
                  "children": [],
                  "lat": 38.412225,
                  "lng": 128.372726
                },
                {
                  "name": "대대리",
                  "kind": "ri",
                  "children": [],
                  "lat": 38.395538,
                  "lng": 128.456872
                },
                {
                  "name": "반암리",
                  "kind": "ri",
                  "children": [],
                  "lat": 38.418173,
                  "lng": 128.459956
                },
                {
                  "name": "봉평리",
                  "kind": "ri",
                  "children": [],
                  "lat": 38.444919,
                  "lng": 128.440296
                },
                {
                  "name": "산북리",
                  "kind": "ri",
                  "children": [],
                  "lat": 38.460592,
                  "lng": 128.377695
                },
                {
                  "name": "석문리",
                  "kind": "ri",
                  "children": [],
                  "lat": 38.413036,
                  "lng": 128.420243
                },
                {
                  "name": "송강리",
                  "kind": "ri",
                  "children": [],
                  "lat": 38.434155,
                  "lng": 128.380776
                },
                {
                  "name": "송정리",
                  "kind": "ri",
                  "children": [],
                  "lat": 38.434643,
                  "lng": 128.420378
                },
                {
                  "name": "송죽리",
                  "kind": "ri",
                  "children": [],
                  "lat": 38.405718,
                  "lng": 128.467177
                },
                {
                  "name": "송포리",
                  "kind": "ri",
                  "children": [],
                  "lat": 38.428898,
                  "lng": 128.444511
                },
                {
                  "name": "오정리",
                  "kind": "ri",
                  "children": [],
                  "lat": 38.408894,
                  "lng": 128.445201
                },
                {
                  "name": "용하리",
                  "kind": "ri",
                  "children": [],
                  "lat": 38.448092,
                  "lng": 128.384843
                },
                {
                  "name": "원당리",
                  "kind": "ri",
                  "children": [],
                  "lat": 38.456642,
                  "lng": 128.414345
                },
                {
                  "name": "자산리",
                  "kind": "ri",
                  "children": [],
                  "lat": 38.438303,
                  "lng": 128.444667
                },
                {
                  "name": "초계리",
                  "kind": "ri",
                  "children": [],
                  "lat": 38.396205,
                  "lng": 128.435791
                },
                {
                  "name": "화포리",
                  "kind": "ri",
                  "children": [],
                  "lat": 38.460002,
                  "lng": 128.441481
                }
              ],
              "lat": 38.430712,
              "lng": 128.408391
            },
            {
              "name": "수동면",
              "kind": "myeon",
              "children": [
                {
                  "name": "고미성리",
                  "kind": "ri",
                  "children": [],
                  "lat": 38.453191,
                  "lng": 128.323163
                },
                {
                  "name": "덕산리",
                  "kind": "ri",
                  "children": [],
                  "lat": 38.591369,
                  "lng": 128.32316
                },
                {
                  "name": "사비리",
                  "kind": "ri",
                  "children": [],
                  "lat": 38.494678,
                  "lng": 128.323937
                },
                {
                  "name": "사천리",
                  "kind": "ri",
                  "children": [],
                  "lat": 38.414375,
                  "lng": 128.319331
                },
                {
                  "name": "상원리",
                  "kind": "ri",
                  "children": [],
                  "lat": 38.374022,
                  "lng": 128.297031
                },
                {
                  "name": "신대리",
                  "kind": "ri",
                  "children": [],
                  "lat": 38.524698,
                  "lng": 128.324869
                },
                {
                  "name": "신탄리",
                  "kind": "ri",
                  "children": [],
                  "lat": 38.397183,
                  "lng": 128.253799
                },
                {
                  "name": "외면리",
                  "kind": "ri",
                  "children": [],
                  "lat": 38.559767,
                  "lng": 128.32897
                }
              ],
              "lat": 38.438626,
              "lng": 128.307693
            },
            {
              "name": "죽왕면",
              "kind": "myeon",
              "children": [
                {
                  "name": "가진리",
                  "kind": "ri",
                  "children": [],
                  "lat": 38.369699,
                  "lng": 128.499328
                },
                {
                  "name": "공현진리",
                  "kind": "ri",
                  "children": [],
                  "lat": 38.354906,
                  "lng": 128.498622
                },
                {
                  "name": "구성리",
                  "kind": "ri",
                  "children": [],
                  "lat": 38.316543,
                  "lng": 128.46527
                },
                {
                  "name": "마좌리",
                  "kind": "ri",
                  "children": [],
                  "lat": 38.298827,
                  "lng": 128.445342
                },
                {
                  "name": "문암진리",
                  "kind": "ri",
                  "children": [],
                  "lat": 38.302466,
                  "lng": 128.542601
                },
                {
                  "name": "삼포리",
                  "kind": "ri",
                  "children": [],
                  "lat": 38.314348,
                  "lng": 128.513448
                },
                {
                  "name": "송암리",
                  "kind": "ri",
                  "children": [],
                  "lat": 38.308458,
                  "lng": 128.535772
                },
                {
                  "name": "야촌리",
                  "kind": "ri",
                  "children": [],
                  "lat": 38.302045,
                  "lng": 128.500837
                },
                {
                  "name": "오봉리",
                  "kind": "ri",
                  "children": [],
                  "lat": 38.339074,
                  "lng": 128.500152
                },
                {
                  "name": "오호리",
                  "kind": "ri",
                  "children": [],
                  "lat": 38.328903,
                  "lng": 128.524347
                },
                {
                  "name": "인정리",
                  "kind": "ri",
                  "children": [],
                  "lat": 38.324197,
                  "lng": 128.497981
                },
                {
                  "name": "향목리",
                  "kind": "ri",
                  "children": [],
                  "lat": 38.373692,
                  "lng": 128.487014
                }
              ],
              "lat": 38.323529,
              "lng": 128.489043
            },
            {
              "name": "토성면",
              "kind": "myeon",
              "children": [
                {
                  "name": "교암리",
                  "kind": "ri",
                  "children": [],
                  "lat": 38.283078,
                  "lng": 128.536794
                },
                {
                  "name": "금화정리",
                  "kind": "ri",
                  "children": [],
                  "lat": 38.27974,
                  "lng": 128.53861
                },
                {
                  "name": "도원리",
                  "kind": "ri",
                  "children": [],
                  "lat": 38.268624,
                  "lng": 128.452576
                },
                {
                  "name": "백촌리",
                  "kind": "ri",
                  "children": [],
                  "lat": 38.286205,
                  "lng": 128.531067
                },
                {
                  "name": "봉포리",
                  "kind": "ri",
                  "children": [],
                  "lat": 38.246541,
                  "lng": 128.559224
                },
                {
                  "name": "성대리",
                  "kind": "ri",
                  "children": [],
                  "lat": 38.249403,
                  "lng": 128.489789
                },
                {
                  "name": "성천리",
                  "kind": "ri",
                  "children": [],
                  "lat": 38.222082,
                  "lng": 128.544332
                },
                {
                  "name": "신평리",
                  "kind": "ri",
                  "children": [],
                  "lat": 38.235781,
                  "lng": 128.488071
                },
                {
                  "name": "아야진리",
                  "kind": "ri",
                  "children": [],
                  "lat": 38.273655,
                  "lng": 128.541589
                },
                {
                  "name": "용암리",
                  "kind": "ri",
                  "children": [],
                  "lat": 38.26278,
                  "lng": 128.53439
                },
                {
                  "name": "용촌리",
                  "kind": "ri",
                  "children": [],
                  "lat": 38.230573,
                  "lng": 128.570849
                },
                {
                  "name": "운봉리",
                  "kind": "ri",
                  "children": [],
                  "lat": 38.291664,
                  "lng": 128.511518
                },
                {
                  "name": "원암리",
                  "kind": "ri",
                  "children": [],
                  "lat": 38.208052,
                  "lng": 128.479622
                },
                {
                  "name": "인흥리",
                  "kind": "ri",
                  "children": [],
                  "lat": 38.22796,
                  "lng": 128.520647
                },
                {
                  "name": "천진리",
                  "kind": "ri",
                  "children": [],
                  "lat": 38.255644,
                  "lng": 128.549839
                },
                {
                  "name": "청간리",
                  "kind": "ri",
                  "children": [],
                  "lat": 38.266854,
                  "lng": 128.549447
                },
                {
                  "name": "학야리",
                  "kind": "ri",
                  "children": [],
                  "lat": 38.284228,
                  "lng": 128.48968
                }
              ],
              "lat": 38.249611,
              "lng": 128.492795
            },
            {
              "name": "현내면",
              "kind": "myeon",
              "children": [
                {
                  "name": "검장리",
                  "kind": "ri",
                  "children": [],
                  "lat": 38.549992,
                  "lng": 128.358854
                },
                {
                  "name": "대강리",
                  "kind": "ri",
                  "children": [],
                  "lat": 38.601296,
                  "lng": 128.345377
                },
                {
                  "name": "대진리",
                  "kind": "ri",
                  "children": [],
                  "lat": 38.500891,
                  "lng": 128.417914
                },
                {
                  "name": "마달리",
                  "kind": "ri",
                  "children": [],
                  "lat": 38.509107,
                  "lng": 128.370197
                },
                {
                  "name": "마차진리",
                  "kind": "ri",
                  "children": [],
                  "lat": 38.519057,
                  "lng": 128.413256
                },
                {
                  "name": "명파리",
                  "kind": "ri",
                  "children": [],
                  "lat": 38.53938,
                  "lng": 128.376723
                },
                {
                  "name": "명호리",
                  "kind": "ri",
                  "children": [],
                  "lat": 38.582248,
                  "lng": 128.359961
                },
                {
                  "name": "배봉리",
                  "kind": "ri",
                  "children": [],
                  "lat": 38.527981,
                  "lng": 128.39378
                },
                {
                  "name": "사천리",
                  "kind": "ri",
                  "children": [],
                  "lat": 38.563918,
                  "lng": 128.381857
                },
                {
                  "name": "산학리",
                  "kind": "ri",
                  "children": [],
                  "lat": 38.478707,
                  "lng": 128.405723
                },
                {
                  "name": "송도진리",
                  "kind": "ri",
                  "children": [],
                  "lat": 38.597045,
                  "lng": 128.360534
                },
                {
                  "name": "송현리",
                  "kind": "ri",
                  "children": [],
                  "lat": 38.567329,
                  "lng": 128.36314
                },
                {
                  "name": "제진리",
                  "kind": "ri",
                  "children": [],
                  "lat": 38.557984,
                  "lng": 128.39678
                },
                {
                  "name": "죽정리",
                  "kind": "ri",
                  "children": [],
                  "lat": 38.469015,
                  "lng": 128.421252
                },
                {
                  "name": "철통리",
                  "kind": "ri",
                  "children": [],
                  "lat": 38.493416,
                  "lng": 128.41283
                },
                {
                  "name": "초도리",
                  "kind": "ri",
                  "children": [],
                  "lat": 38.48374,
                  "lng": 128.425993
                },
                {
                  "name": "화곡리",
                  "kind": "ri",
                  "children": [],
                  "lat": 38.482202,
                  "lng": 128.369739
                }
              ],
              "lat": 38.524949,
              "lng": 128.37911
            }
          ],
          "lat": 38.383374,
          "lng": 128.411481
        },
        {
          "name": "동해시",
          "kind": "si",
          "children": [
            {
              "name": "괴란동",
              "kind": "dong",
              "children": [],
              "lat": 37.570756,
              "lng": 129.059677
            },
            {
              "name": "구미동",
              "kind": "dong",
              "children": [],
              "lat": 37.483902,
              "lng": 129.133239
            },
            {
              "name": "구호동",
              "kind": "dong",
              "children": [],
              "lat": 37.484506,
              "lng": 129.148801
            },
            {
              "name": "귀운동",
              "kind": "dong",
              "children": [],
              "lat": 37.467811,
              "lng": 129.084391
            },
            {
              "name": "나안동",
              "kind": "dong",
              "children": [],
              "lat": 37.485142,
              "lng": 129.11243
            },
            {
              "name": "내동",
              "kind": "dong",
              "children": [],
              "lat": 37.459351,
              "lng": 129.130176
            },
            {
              "name": "단봉동",
              "kind": "dong",
              "children": [],
              "lat": 37.468858,
              "lng": 129.117157
            },
            {
              "name": "달방동",
              "kind": "dong",
              "children": [],
              "lat": 37.501023,
              "lng": 129.01612
            },
            {
              "name": "대구동",
              "kind": "dong",
              "children": [],
              "lat": 37.469628,
              "lng": 129.134576
            },
            {
              "name": "대진동",
              "kind": "dong",
              "children": [],
              "lat": 37.57516,
              "lng": 129.110961
            },
            {
              "name": "동회동",
              "kind": "dong",
              "children": [],
              "lat": 37.492834,
              "lng": 129.099841
            },
            {
              "name": "만우동",
              "kind": "dong",
              "children": [],
              "lat": 37.553469,
              "lng": 129.066611
            },
            {
              "name": "망상동",
              "kind": "dong",
              "children": [],
              "lat": 37.589804,
              "lng": 129.082288
            },
            {
              "name": "묵호진동",
              "kind": "dong",
              "children": [],
              "lat": 37.555571,
              "lng": 129.1144
            },
            {
              "name": "발한동",
              "kind": "dong",
              "children": [],
              "lat": 37.551265,
              "lng": 129.095489
            },
            {
              "name": "부곡동",
              "kind": "dong",
              "children": [],
              "lat": 37.53635,
              "lng": 129.081102
            },
            {
              "name": "북평동",
              "kind": "dong",
              "children": [],
              "lat": 37.481888,
              "lng": 129.120726
            },
            {
              "name": "비천동",
              "kind": "dong",
              "children": [],
              "lat": 37.529099,
              "lng": 129.044263
            },
            {
              "name": "삼화동",
              "kind": "dong",
              "children": [],
              "lat": 37.459216,
              "lng": 129.009039
            },
            {
              "name": "송정동",
              "kind": "dong",
              "children": [],
              "lat": 37.496451,
              "lng": 129.133271
            },
            {
              "name": "쇄운동",
              "kind": "dong",
              "children": [],
              "lat": 37.478491,
              "lng": 129.075604
            },
            {
              "name": "신흥동",
              "kind": "dong",
              "children": [],
              "lat": 37.518686,
              "lng": 128.996166
            },
            {
              "name": "심곡동",
              "kind": "dong",
              "children": [],
              "lat": 37.581165,
              "lng": 129.079086
            },
            {
              "name": "어달동",
              "kind": "dong",
              "children": [],
              "lat": 37.564992,
              "lng": 129.113184
            },
            {
              "name": "용정동",
              "kind": "dong",
              "children": [],
              "lat": 37.506843,
              "lng": 129.119912
            },
            {
              "name": "이기동",
              "kind": "dong",
              "children": [],
              "lat": 37.485034,
              "lng": 129.004795
            },
            {
              "name": "이도동",
              "kind": "dong",
              "children": [],
              "lat": 37.478405,
              "lng": 129.105403
            },
            {
              "name": "이로동",
              "kind": "dong",
              "children": [],
              "lat": 37.497474,
              "lng": 129.054039
            },
            {
              "name": "지가동",
              "kind": "dong",
              "children": [],
              "lat": 37.467733,
              "lng": 129.105745
            },
            {
              "name": "지흥동",
              "kind": "dong",
              "children": [],
              "lat": 37.505985,
              "lng": 129.090034
            },
            {
              "name": "천곡동",
              "kind": "dong",
              "children": [],
              "lat": 37.520538,
              "lng": 129.098634
            },
            {
              "name": "초구동",
              "kind": "dong",
              "children": [],
              "lat": 37.570489,
              "lng": 129.09145
            },
            {
              "name": "추암동",
              "kind": "dong",
              "children": [],
              "lat": 37.473606,
              "lng": 129.151593
            },
            {
              "name": "평릉동",
              "kind": "dong",
              "children": [],
              "lat": 37.531914,
              "lng": 129.099601
            },
            {
              "name": "호현동",
              "kind": "dong",
              "children": [],
              "lat": 37.464571,
              "lng": 129.125114
            },
            {
              "name": "효가동",
              "kind": "dong",
              "children": [],
              "lat": 37.497765,
              "lng": 129.109526
            }
          ],
          "lat": 37.509883,
          "lng": 129.092068
        },
        {
          "name": "삼척시",
          "kind": "si",
          "children": [
            {
              "name": "가곡면",
              "kind": "myeon",
              "children": [
                {
                  "name": "동활리",
                  "kind": "ri",
                  "children": [],
                  "lat": 37.15404,
                  "lng": 129.129041
                },
                {
                  "name": "오목리",
                  "kind": "ri",
                  "children": [],
                  "lat": 37.175995,
                  "lng": 129.180326
                },
                {
                  "name": "오저리",
                  "kind": "ri",
                  "children": [],
                  "lat": 37.138287,
                  "lng": 129.188541
                },
                {
                  "name": "탕곡리",
                  "kind": "ri",
                  "children": [],
                  "lat": 37.158831,
                  "lng": 129.217484
                },
                {
                  "name": "풍곡리",
                  "kind": "ri",
                  "children": [],
                  "lat": 37.094568,
                  "lng": 129.167043
                }
              ],
              "lat": 37.124022,
              "lng": 129.16859
            },
            {
              "name": "갈천동",
              "kind": "dong",
              "children": [],
              "lat": 37.464536,
              "lng": 129.163342
            },
            {
              "name": "건지동",
              "kind": "dong",
              "children": [],
              "lat": 37.428936,
              "lng": 129.147672
            },
            {
              "name": "교동",
              "kind": "dong",
              "children": [],
              "lat": 37.454568,
              "lng": 129.174103
            },
            {
              "name": "근덕면",
              "kind": "myeon",
              "children": [
                {
                  "name": "광태리",
                  "kind": "ri",
                  "children": [],
                  "lat": 37.351269,
                  "lng": 129.224511
                },
                {
                  "name": "교가리",
                  "kind": "ri",
                  "children": [],
                  "lat": 37.375863,
                  "lng": 129.227653
                },
                {
                  "name": "교곡리",
                  "kind": "ri",
                  "children": [],
                  "lat": 37.360855,
                  "lng": 129.198892
                },
                {
                  "name": "궁촌리",
                  "kind": "ri",
                  "children": [],
                  "lat": 37.277521,
                  "lng": 129.24727
                },
                {
                  "name": "금계리",
                  "kind": "ri",
                  "children": [],
                  "lat": 37.394719,
                  "lng": 129.181977
                },
                {
                  "name": "덕산리",
                  "kind": "ri",
                  "children": [],
                  "lat": 37.378276,
                  "lng": 129.243013
                },
                {
                  "name": "동막리",
                  "kind": "ri",
                  "children": [],
                  "lat": 37.318452,
                  "lng": 129.221636
                },
                {
                  "name": "매원리",
                  "kind": "ri",
                  "children": [],
                  "lat": 37.283148,
                  "lng": 129.270658
                },
                {
                  "name": "부남리",
                  "kind": "ri",
                  "children": [],
                  "lat": 37.359588,
                  "lng": 129.243234
                },
                {
                  "name": "상맹방리",
                  "kind": "ri",
                  "children": [],
                  "lat": 37.400899,
                  "lng": 129.20385
                },
                {
                  "name": "용화리",
                  "kind": "ri",
                  "children": [],
                  "lat": 37.270185,
                  "lng": 129.288655
                },
                {
                  "name": "장호리",
                  "kind": "ri",
                  "children": [],
                  "lat": 37.271728,
                  "lng": 129.309562
                },
                {
                  "name": "초곡리",
                  "kind": "ri",
                  "children": [],
                  "lat": 37.304564,
                  "lng": 129.290167
                },
                {
                  "name": "하맹방리",
                  "kind": "ri",
                  "children": [],
                  "lat": 37.385831,
                  "lng": 129.207853
                }
              ],
              "lat": 37.318356,
              "lng": 129.237019
            },
            {
              "name": "근산동",
              "kind": "dong",
              "children": [],
              "lat": 37.417606,
              "lng": 129.143845
            },
            {
              "name": "남양동",
              "kind": "dong",
              "children": [],
              "lat": 37.433245,
              "lng": 129.163871
            },
            {
              "name": "노곡면",
              "kind": "myeon",
              "children": [
                {
                  "name": "개산리",
                  "kind": "ri",
                  "children": [],
                  "lat": 37.323123,
                  "lng": 129.183382
                },
                {
                  "name": "고자리",
                  "kind": "ri",
                  "children": [],
                  "lat": 37.354569,
                  "lng": 129.152119
                },
                {
                  "name": "둔달리",
                  "kind": "ri",
                  "children": [],
                  "lat": 37.296082,
                  "lng": 129.115565
                },
                {
                  "name": "상군천리",
                  "kind": "ri",
                  "children": [],
                  "lat": 37.314506,
                  "lng": 129.121928
                },
                {
                  "name": "상마읍리",
                  "kind": "ri",
                  "children": [],
                  "lat": 37.234049,
                  "lng": 129.166258
                },
                {
                  "name": "상반천리",
                  "kind": "ri",
                  "children": [],
                  "lat": 37.348836,
                  "lng": 129.130075
                },
                {
                  "name": "상월산리",
                  "kind": "ri",
                  "children": [],
                  "lat": 37.33071,
                  "lng": 129.161989
                },
                {
                  "name": "상천기리",
                  "kind": "ri",
                  "children": [],
                  "lat": 37.364089,
                  "lng": 129.112462
                },
                {
                  "name": "여삼리",
                  "kind": "ri",
                  "children": [],
                  "lat": 37.374353,
                  "lng": 129.140496
                },
                {
                  "name": "우발리",
                  "kind": "ri",
                  "children": [],
                  "lat": 37.373679,
                  "lng": 129.169945
                },
                {
                  "name": "주지리",
                  "kind": "ri",
                  "children": [],
                  "lat": 37.281381,
                  "lng": 129.134034
                },
                {
                  "name": "중마읍리",
                  "kind": "ri",
                  "children": [],
                  "lat": 37.255577,
                  "lng": 129.194714
                },
                {
                  "name": "하군천리",
                  "kind": "ri",
                  "children": [],
                  "lat": 37.318275,
                  "lng": 129.146875
                },
                {
                  "name": "하마읍리",
                  "kind": "ri",
                  "children": [],
                  "lat": 37.279755,
                  "lng": 129.183455
                },
                {
                  "name": "하반천리",
                  "kind": "ri",
                  "children": [],
                  "lat": 37.351439,
                  "lng": 129.115591
                },
                {
                  "name": "하월산리",
                  "kind": "ri",
                  "children": [],
                  "lat": 37.346307,
                  "lng": 129.174474
                }
              ],
              "lat": 37.293616,
              "lng": 129.159394
            },
            {
              "name": "당저동",
              "kind": "dong",
              "children": [],
              "lat": 37.446886,
              "lng": 129.163262
            },
            {
              "name": "도경동",
              "kind": "dong",
              "children": [],
              "lat": 37.44727,
              "lng": 129.101844
            },
            {
              "name": "도계읍",
              "kind": "eup",
              "children": [
                {
                  "name": "고사리",
                  "kind": "ri",
                  "children": [],
                  "lat": 37.280276,
                  "lng": 129.064346
                },
                {
                  "name": "구사리",
                  "kind": "ri",
                  "children": [],
                  "lat": 37.176908,
                  "lng": 129.076101
                },
                {
                  "name": "늑구리",
                  "kind": "ri",
                  "children": [],
                  "lat": 37.266089,
                  "lng": 129.047526
                },
                {
                  "name": "도계리",
                  "kind": "ri",
                  "children": [],
                  "lat": 37.23106,
                  "lng": 129.057757
                },
                {
                  "name": "마교리",
                  "kind": "ri",
                  "children": [],
                  "lat": 37.245739,
                  "lng": 129.069865
                },
                {
                  "name": "무건리",
                  "kind": "ri",
                  "children": [],
                  "lat": 37.260917,
                  "lng": 129.108994
                },
                {
                  "name": "발이리",
                  "kind": "ri",
                  "children": [],
                  "lat": 37.297052,
                  "lng": 129.047923
                },
                {
                  "name": "산기리",
                  "kind": "ri",
                  "children": [],
                  "lat": 37.262541,
                  "lng": 129.085834
                },
                {
                  "name": "상덕리",
                  "kind": "ri",
                  "children": [],
                  "lat": 37.204611,
                  "lng": 129.077388
                },
                {
                  "name": "신리",
                  "kind": "ri",
                  "children": [],
                  "lat": 37.197994,
                  "lng": 129.130926
                },
                {
                  "name": "심포리",
                  "kind": "ri",
                  "children": [],
                  "lat": 37.189042,
                  "lng": 129.036323
                },
                {
                  "name": "전두리",
                  "kind": "ri",
                  "children": [],
                  "lat": 37.232012,
                  "lng": 129.03761
                },
                {
                  "name": "점리",
                  "kind": "ri",
                  "children": [],
                  "lat": 37.249681,
                  "lng": 129.0178
                },
                {
                  "name": "차구리",
                  "kind": "ri",
                  "children": [],
                  "lat": 37.288038,
                  "lng": 129.090467
                },
                {
                  "name": "한내리",
                  "kind": "ri",
                  "children": [],
                  "lat": 37.283786,
                  "lng": 129.0196
                },
                {
                  "name": "황조리",
                  "kind": "ri",
                  "children": [],
                  "lat": 37.224144,
                  "lng": 129.098598
                },
                {
                  "name": "흥전리",
                  "kind": "ri",
                  "children": [],
                  "lat": 37.213264,
                  "lng": 129.026894
                }
              ],
              "lat": 37.230652,
              "lng": 129.072031
            },
            {
              "name": "등봉동",
              "kind": "dong",
              "children": [],
              "lat": 37.449855,
              "lng": 129.12141
            },
            {
              "name": "마달동",
              "kind": "dong",
              "children": [],
              "lat": 37.452973,
              "lng": 129.155878
            },
            {
              "name": "마평동",
              "kind": "dong",
              "children": [],
              "lat": 37.425444,
              "lng": 129.132238
            },
            {
              "name": "미로면",
              "kind": "myeon",
              "children": [
                {
                  "name": "고천리",
                  "kind": "ri",
                  "children": [],
                  "lat": 37.423924,
                  "lng": 129.04436
                },
                {
                  "name": "내미로리",
                  "kind": "ri",
                  "children": [],
                  "lat": 37.443887,
                  "lng": 129.055267
                },
                {
                  "name": "동산리",
                  "kind": "ri",
                  "children": [],
                  "lat": 37.395896,
                  "lng": 129.084483
                },
                {
                  "name": "무사리",
                  "kind": "ri",
                  "children": [],
                  "lat": 37.423126,
                  "lng": 129.122501
                },
                {
                  "name": "사둔리",
                  "kind": "ri",
                  "children": [],
                  "lat": 37.428385,
                  "lng": 129.094302
                },
                {
                  "name": "삼거리",
                  "kind": "ri",
                  "children": [],
                  "lat": 37.40854,
                  "lng": 129.029543
                },
                {
                  "name": "상거노리",
                  "kind": "ri",
                  "children": [],
                  "lat": 37.398063,
                  "lng": 129.118199
                },
                {
                  "name": "상사전리",
                  "kind": "ri",
                  "children": [],
                  "lat": 37.397808,
                  "lng": 129.048134
                },
                {
                  "name": "상정리",
                  "kind": "ri",
                  "children": [],
                  "lat": 37.380105,
                  "lng": 129.092717
                },
                {
                  "name": "천기리",
                  "kind": "ri",
                  "children": [],
                  "lat": 37.36887,
                  "lng": 129.096741
                },
                {
                  "name": "하거노리",
                  "kind": "ri",
                  "children": [],
                  "lat": 37.411721,
                  "lng": 129.101085
                },
                {
                  "name": "하사전리",
                  "kind": "ri",
                  "children": [],
                  "lat": 37.386698,
                  "lng": 129.072508
                },
                {
                  "name": "하정리",
                  "kind": "ri",
                  "children": [],
                  "lat": 37.38361,
                  "lng": 129.114555
                },
                {
                  "name": "활기리",
                  "kind": "ri",
                  "children": [],
                  "lat": 37.374316,
                  "lng": 129.047043
                }
              ],
              "lat": 37.405036,
              "lng": 129.066926
            },
            {
              "name": "사직동",
              "kind": "dong",
              "children": [],
              "lat": 37.426231,
              "lng": 129.170337
            },
            {
              "name": "성남동",
              "kind": "dong",
              "children": [],
              "lat": 37.432588,
              "lng": 129.15695
            },
            {
              "name": "성내동",
              "kind": "dong",
              "children": [],
              "lat": 37.442011,
              "lng": 129.161268
            },
            {
              "name": "성북동",
              "kind": "dong",
              "children": [],
              "lat": 37.443552,
              "lng": 129.156868
            },
            {
              "name": "신기면",
              "kind": "myeon",
              "children": [
                {
                  "name": "고무릉리",
                  "kind": "ri",
                  "children": [],
                  "lat": 37.348304,
                  "lng": 129.034972
                },
                {
                  "name": "대기리",
                  "kind": "ri",
                  "children": [],
                  "lat": 37.314324,
                  "lng": 129.036893
                },
                {
                  "name": "대이리",
                  "kind": "ri",
                  "children": [],
                  "lat": 37.327273,
                  "lng": 129.025485
                },
                {
                  "name": "대평리",
                  "kind": "ri",
                  "children": [],
                  "lat": 37.327288,
                  "lng": 129.099047
                },
                {
                  "name": "마차리",
                  "kind": "ri",
                  "children": [],
                  "lat": 37.310128,
                  "lng": 129.080552
                },
                {
                  "name": "서하리",
                  "kind": "ri",
                  "children": [],
                  "lat": 37.349916,
                  "lng": 129.066011
                },
                {
                  "name": "신기리",
                  "kind": "ri",
                  "children": [],
                  "lat": 37.350746,
                  "lng": 129.09145
                },
                {
                  "name": "안의리",
                  "kind": "ri",
                  "children": [],
                  "lat": 37.334912,
                  "lng": 129.072875
                }
              ],
              "lat": 37.330249,
              "lng": 129.059411
            },
            {
              "name": "오분동",
              "kind": "dong",
              "children": [],
              "lat": 37.424325,
              "lng": 129.188093
            },
            {
              "name": "오사동",
              "kind": "dong",
              "children": [],
              "lat": 37.435817,
              "lng": 129.139918
            },
            {
              "name": "우지동",
              "kind": "dong",
              "children": [],
              "lat": 37.457961,
              "lng": 129.146074
            },
            {
              "name": "원당동",
              "kind": "dong",
              "children": [],
              "lat": 37.442322,
              "lng": 129.150283
            },
            {
              "name": "원덕읍",
              "kind": "eup",
              "children": [
                {
                  "name": "갈남리",
                  "kind": "ri",
                  "children": [],
                  "lat": 37.265901,
                  "lng": 129.322337
                },
                {
                  "name": "기곡리",
                  "kind": "ri",
                  "children": [],
                  "lat": 37.156894,
                  "lng": 129.247981
                },
                {
                  "name": "노경리",
                  "kind": "ri",
                  "children": [],
                  "lat": 37.161939,
                  "lng": 129.313268
                },
                {
                  "name": "노곡리",
                  "kind": "ri",
                  "children": [],
                  "lat": 37.214084,
                  "lng": 129.326229
                },
                {
                  "name": "사곡리",
                  "kind": "ri",
                  "children": [],
                  "lat": 37.110217,
                  "lng": 129.24312
                },
                {
                  "name": "산양리",
                  "kind": "ri",
                  "children": [],
                  "lat": 37.152007,
                  "lng": 129.286877
                },
                {
                  "name": "옥원리",
                  "kind": "ri",
                  "children": [],
                  "lat": 37.196663,
                  "lng": 129.31648
                },
                {
                  "name": "월천리",
                  "kind": "ri",
                  "children": [],
                  "lat": 37.157654,
                  "lng": 129.342806
                },
                {
                  "name": "이천리",
                  "kind": "ri",
                  "children": [],
                  "lat": 37.208271,
                  "lng": 129.248074
                },
                {
                  "name": "임원리",
                  "kind": "ri",
                  "children": [],
                  "lat": 37.240637,
                  "lng": 129.312896
                },
                {
                  "name": "호산리",
                  "kind": "ri",
                  "children": [],
                  "lat": 37.177667,
                  "lng": 129.340939
                }
              ],
              "lat": 37.182557,
              "lng": 129.277769
            },
            {
              "name": "읍상동",
              "kind": "dong",
              "children": [],
              "lat": 37.439713,
              "lng": 129.161933
            },
            {
              "name": "읍중동",
              "kind": "dong",
              "children": [],
              "lat": 37.44139,
              "lng": 129.163157
            },
            {
              "name": "자원동",
              "kind": "dong",
              "children": [],
              "lat": 37.442022,
              "lng": 129.140081
            },
            {
              "name": "적노동",
              "kind": "dong",
              "children": [],
              "lat": 37.414627,
              "lng": 129.17769
            },
            {
              "name": "정상동",
              "kind": "dong",
              "children": [],
              "lat": 37.439259,
              "lng": 129.178407
            },
            {
              "name": "정하동",
              "kind": "dong",
              "children": [],
              "lat": 37.440916,
              "lng": 129.188172
            },
            {
              "name": "조비동",
              "kind": "dong",
              "children": [],
              "lat": 37.399262,
              "lng": 129.154474
            },
            {
              "name": "증산동",
              "kind": "dong",
              "children": [],
              "lat": 37.471082,
              "lng": 129.157394
            },
            {
              "name": "평전동",
              "kind": "dong",
              "children": [],
              "lat": 37.449407,
              "lng": 129.132141
            },
            {
              "name": "하장면",
              "kind": "myeon",
              "children": [
                {
                  "name": "갈전리",
                  "kind": "ri",
                  "children": [],
                  "lat": 37.381478,
                  "lng": 128.895074
                },
                {
                  "name": "공전리",
                  "kind": "ri",
                  "children": [],
                  "lat": 37.347524,
                  "lng": 128.859585
                },
                {
                  "name": "광동리",
                  "kind": "ri",
                  "children": [],
                  "lat": 37.34524,
                  "lng": 128.94203
                },
                {
                  "name": "대전리",
                  "kind": "ri",
                  "children": [],
                  "lat": 37.28477,
                  "lng": 128.886478
                },
                {
                  "name": "둔전리",
                  "kind": "ri",
                  "children": [],
                  "lat": 37.308695,
                  "lng": 128.884782
                },
                {
                  "name": "번천리",
                  "kind": "ri",
                  "children": [],
                  "lat": 37.391013,
                  "lng": 128.99275
                },
                {
                  "name": "숙암리",
                  "kind": "ri",
                  "children": [],
                  "lat": 37.341119,
                  "lng": 128.968934
                },
                {
                  "name": "어리",
                  "kind": "ri",
                  "children": [],
                  "lat": 37.285045,
                  "lng": 128.918722
                },
                {
                  "name": "역둔리",
                  "kind": "ri",
                  "children": [],
                  "lat": 37.300526,
                  "lng": 128.869703
                },
                {
                  "name": "용연리",
                  "kind": "ri",
                  "children": [],
                  "lat": 37.304874,
                  "lng": 128.920564
                },
                {
                  "name": "장전리",
                  "kind": "ri",
                  "children": [],
                  "lat": 37.351264,
                  "lng": 128.922366
                },
                {
                  "name": "중봉리",
                  "kind": "ri",
                  "children": [],
                  "lat": 37.40906,
                  "lng": 128.941555
                },
                {
                  "name": "추동리",
                  "kind": "ri",
                  "children": [],
                  "lat": 37.337339,
                  "lng": 128.896333
                },
                {
                  "name": "토산리",
                  "kind": "ri",
                  "children": [],
                  "lat": 37.376606,
                  "lng": 128.868918
                },
                {
                  "name": "판문리",
                  "kind": "ri",
                  "children": [],
                  "lat": 37.262591,
                  "lng": 128.911196
                },
                {
                  "name": "한소리",
                  "kind": "ri",
                  "children": [],
                  "lat": 37.240812,
                  "lng": 128.906652
                }
              ],
              "lat": 37.355214,
              "lng": 128.929062
            }
          ],
          "lat": 37.402957,
          "lng": 129.147454
        },
        {
          "name": "속초시",
          "kind": "si",
          "children": [
            {
              "name": "교동",
              "kind": "dong",
              "children": [],
              "lat": 38.201901,
              "lng": 128.57391
            },
            {
              "name": "금호동",
              "kind": "dong",
              "children": [],
              "lat": 38.210047,
              "lng": 128.579469
            },
            {
              "name": "노학동",
              "kind": "dong",
              "children": [],
              "lat": 38.190597,
              "lng": 128.529886
            },
            {
              "name": "대포동",
              "kind": "dong",
              "children": [],
              "lat": 38.174072,
              "lng": 128.59984
            },
            {
              "name": "도문동",
              "kind": "dong",
              "children": [],
              "lat": 38.168287,
              "lng": 128.565905
            },
            {
              "name": "동명동",
              "kind": "dong",
              "children": [],
              "lat": 38.211359,
              "lng": 128.591657
            },
            {
              "name": "설악동",
              "kind": "dong",
              "children": [],
              "lat": 38.162686,
              "lng": 128.484953
            },
            {
              "name": "영랑동",
              "kind": "dong",
              "children": [],
              "lat": 38.215843,
              "lng": 128.592832
            },
            {
              "name": "장사동",
              "kind": "dong",
              "children": [],
              "lat": 38.214111,
              "lng": 128.557936
            },
            {
              "name": "조양동",
              "kind": "dong",
              "children": [],
              "lat": 38.184768,
              "lng": 128.581637
            },
            {
              "name": "중앙동",
              "kind": "dong",
              "children": [],
              "lat": 38.206359,
              "lng": 128.589273
            },
            {
              "name": "청학동",
              "kind": "dong",
              "children": [],
              "lat": 38.202657,
              "lng": 128.584484
            },
            {
              "name": "청호동",
              "kind": "dong",
              "children": [],
              "lat": 38.196756,
              "lng": 128.596542
            }
          ],
          "lat": 38.195342,
          "lng": 128.57141
        },
        {
          "name": "양구군",
          "kind": "gun",
          "children": [
            {
              "name": "국토정중앙면",
              "kind": "myeon",
              "children": [
                {
                  "name": "가오작리",
                  "kind": "ri",
                  "children": [],
                  "lat": 38.138435,
                  "lng": 128.062375
                },
                {
                  "name": "구암리",
                  "kind": "ri",
                  "children": [],
                  "lat": 38.066678,
                  "lng": 128.010246
                },
                {
                  "name": "도촌리",
                  "kind": "ri",
                  "children": [],
                  "lat": 38.064353,
                  "lng": 128.027169
                },
                {
                  "name": "두무리",
                  "kind": "ri",
                  "children": [],
                  "lat": 38.058468,
                  "lng": 128.088079
                },
                {
                  "name": "명곶리",
                  "kind": "ri",
                  "children": [],
                  "lat": 38.024773,
                  "lng": 128.003577
                },
                {
                  "name": "송우리",
                  "kind": "ri",
                  "children": [],
                  "lat": 38.098536,
                  "lng": 128.025434
                },
                {
                  "name": "심포리",
                  "kind": "ri",
                  "children": [],
                  "lat": 38.047501,
                  "lng": 127.992023
                },
                {
                  "name": "야촌리",
                  "kind": "ri",
                  "children": [],
                  "lat": 38.121015,
                  "lng": 128.055354
                },
                {
                  "name": "용하리",
                  "kind": "ri",
                  "children": [],
                  "lat": 38.113584,
                  "lng": 128.038435
                },
                {
                  "name": "원리",
                  "kind": "ri",
                  "children": [],
                  "lat": 38.040275,
                  "lng": 128.043243
                },
                {
                  "name": "적리",
                  "kind": "ri",
                  "children": [],
                  "lat": 38.161599,
                  "lng": 128.071631
                },
                {
                  "name": "죽리",
                  "kind": "ri",
                  "children": [],
                  "lat": 38.065951,
                  "lng": 127.999096
                },
                {
                  "name": "창리",
                  "kind": "ri",
                  "children": [],
                  "lat": 38.082046,
                  "lng": 128.028512
                },
                {
                  "name": "청리",
                  "kind": "ri",
                  "children": [],
                  "lat": 38.099415,
                  "lng": 128.064479
                },
                {
                  "name": "황강리",
                  "kind": "ri",
                  "children": [],
                  "lat": 38.093036,
                  "lng": 128.012715
                }
              ],
              "lat": 38.08323,
              "lng": 128.049923
            },
            {
              "name": "동면",
              "kind": "myeon",
              "children": [
                {
                  "name": "덕곡리",
                  "kind": "ri",
                  "children": [],
                  "lat": 38.200133,
                  "lng": 128.024163
                },
                {
                  "name": "비아리",
                  "kind": "ri",
                  "children": [],
                  "lat": 38.26818,
                  "lng": 128.051991
                },
                {
                  "name": "사태리",
                  "kind": "ri",
                  "children": [],
                  "lat": 38.310815,
                  "lng": 128.039988
                },
                {
                  "name": "원당리",
                  "kind": "ri",
                  "children": [],
                  "lat": 38.189124,
                  "lng": 128.072887
                },
                {
                  "name": "월운리",
                  "kind": "ri",
                  "children": [],
                  "lat": 38.237125,
                  "lng": 128.03245
                },
                {
                  "name": "임당리",
                  "kind": "ri",
                  "children": [],
                  "lat": 38.204487,
                  "lng": 128.045088
                },
                {
                  "name": "지석리",
                  "kind": "ri",
                  "children": [],
                  "lat": 38.174583,
                  "lng": 128.034801
                },
                {
                  "name": "팔랑리",
                  "kind": "ri",
                  "children": [],
                  "lat": 38.219857,
                  "lng": 128.0832
                },
                {
                  "name": "후곡리",
                  "kind": "ri",
                  "children": [],
                  "lat": 38.172589,
                  "lng": 128.062293
                }
              ],
              "lat": 38.229076,
              "lng": 128.055544
            },
            {
              "name": "방산면",
              "kind": "myeon",
              "children": [
                {
                  "name": "건솔리",
                  "kind": "ri",
                  "children": [],
                  "lat": 38.282968,
                  "lng": 127.954331
                },
                {
                  "name": "고방산리",
                  "kind": "ri",
                  "children": [],
                  "lat": 38.235564,
                  "lng": 127.987812
                },
                {
                  "name": "금악리",
                  "kind": "ri",
                  "children": [],
                  "lat": 38.196197,
                  "lng": 127.937446
                },
                {
                  "name": "송현리",
                  "kind": "ri",
                  "children": [],
                  "lat": 38.241037,
                  "lng": 127.942773
                },
                {
                  "name": "오미리",
                  "kind": "ri",
                  "children": [],
                  "lat": 38.186413,
                  "lng": 127.904028
                },
                {
                  "name": "장평리",
                  "kind": "ri",
                  "children": [],
                  "lat": 38.213404,
                  "lng": 127.960578
                },
                {
                  "name": "천미리",
                  "kind": "ri",
                  "children": [],
                  "lat": 38.255714,
                  "lng": 127.886469
                },
                {
                  "name": "칠전리",
                  "kind": "ri",
                  "children": [],
                  "lat": 38.199034,
                  "lng": 127.965925
                },
                {
                  "name": "현리",
                  "kind": "ri",
                  "children": [],
                  "lat": 38.218609,
                  "lng": 127.928675
                }
              ],
              "lat": 38.238044,
              "lng": 127.930457
            },
            {
              "name": "양구읍",
              "kind": "eup",
              "children": [
                {
                  "name": "고대리",
                  "kind": "ri",
                  "children": [],
                  "lat": 38.143344,
                  "lng": 127.983898
                },
                {
                  "name": "공리",
                  "kind": "ri",
                  "children": [],
                  "lat": 38.059,
                  "lng": 127.972047
                },
                {
                  "name": "공수리",
                  "kind": "ri",
                  "children": [],
                  "lat": 38.129959,
                  "lng": 127.95279
                },
                {
                  "name": "군량리",
                  "kind": "ri",
                  "children": [],
                  "lat": 38.154514,
                  "lng": 127.953472
                },
                {
                  "name": "도사리",
                  "kind": "ri",
                  "children": [],
                  "lat": 38.178917,
                  "lng": 128.00186
                },
                {
                  "name": "동수리",
                  "kind": "ri",
                  "children": [],
                  "lat": 38.120533,
                  "lng": 127.968411
                },
                {
                  "name": "상리",
                  "kind": "ri",
                  "children": [],
                  "lat": 38.104228,
                  "lng": 127.986329
                },
                {
                  "name": "상무룡리",
                  "kind": "ri",
                  "children": [],
                  "lat": 38.142753,
                  "lng": 127.904306
                },
                {
                  "name": "석현리",
                  "kind": "ri",
                  "children": [],
                  "lat": 38.045503,
                  "lng": 127.971752
                },
                {
                  "name": "송청리",
                  "kind": "ri",
                  "children": [],
                  "lat": 38.094184,
                  "lng": 128.000343
                },
                {
                  "name": "수인리",
                  "kind": "ri",
                  "children": [],
                  "lat": 38.035261,
                  "lng": 127.924185
                },
                {
                  "name": "안대리",
                  "kind": "ri",
                  "children": [],
                  "lat": 38.087107,
                  "lng": 127.974574
                },
                {
                  "name": "웅진리",
                  "kind": "ri",
                  "children": [],
                  "lat": 38.059868,
                  "lng": 127.941468
                },
                {
                  "name": "월명리",
                  "kind": "ri",
                  "children": [],
                  "lat": 38.100401,
                  "lng": 127.925394
                },
                {
                  "name": "이리",
                  "kind": "ri",
                  "children": [],
                  "lat": 38.080956,
                  "lng": 127.973361
                },
                {
                  "name": "정림리",
                  "kind": "ri",
                  "children": [],
                  "lat": 38.096166,
                  "lng": 127.975161
                },
                {
                  "name": "죽곡리",
                  "kind": "ri",
                  "children": [],
                  "lat": 38.129411,
                  "lng": 128.016601
                },
                {
                  "name": "중리",
                  "kind": "ri",
                  "children": [],
                  "lat": 38.108513,
                  "lng": 127.989128
                },
                {
                  "name": "하리",
                  "kind": "ri",
                  "children": [],
                  "lat": 38.115465,
                  "lng": 127.9841
                },
                {
                  "name": "학조리",
                  "kind": "ri",
                  "children": [],
                  "lat": 38.070836,
                  "lng": 127.978568
                },
                {
                  "name": "한전리",
                  "kind": "ri",
                  "children": [],
                  "lat": 38.151268,
                  "lng": 128.011033
                }
              ],
              "lat": 38.114243,
              "lng": 127.952866
            },
            {
              "name": "해안면",
              "kind": "myeon",
              "children": [
                {
                  "name": "만대리",
                  "kind": "ri",
                  "children": [],
                  "lat": 38.25819,
                  "lng": 128.131403
                },
                {
                  "name": "오유리",
                  "kind": "ri",
                  "children": [],
                  "lat": 38.273651,
                  "lng": 128.106091
                },
                {
                  "name": "월산리",
                  "kind": "ri",
                  "children": [],
                  "lat": 38.303822,
                  "lng": 128.159583
                },
                {
                  "name": "이현리",
                  "kind": "ri",
                  "children": [],
                  "lat": 38.31233,
                  "lng": 128.11304
                },
                {
                  "name": "현리",
                  "kind": "ri",
                  "children": [],
                  "lat": 38.293478,
                  "lng": 128.112373
                },
                {
                  "name": "후리",
                  "kind": "ri",
                  "children": [],
                  "lat": 38.307478,
                  "lng": 128.143141
                }
              ],
              "lat": 38.284251,
              "lng": 128.125741
            }
          ],
          "lat": 38.189769,
          "lng": 128.022906
        },
        {
          "name": "양양군",
          "kind": "gun",
          "children": [
            {
              "name": "강현면",
              "kind": "myeon",
              "children": [
                {
                  "name": "간곡리",
                  "kind": "ri",
                  "children": [],
                  "lat": 38.126157,
                  "lng": 128.562727
                },
                {
                  "name": "강선리",
                  "kind": "ri",
                  "children": [],
                  "lat": 38.154594,
                  "lng": 128.588131
                },
                {
                  "name": "광석리",
                  "kind": "ri",
                  "children": [],
                  "lat": 38.120243,
                  "lng": 128.61175
                },
                {
                  "name": "금풍리",
                  "kind": "ri",
                  "children": [],
                  "lat": 38.107372,
                  "lng": 128.599944
                },
                {
                  "name": "답리",
                  "kind": "ri",
                  "children": [],
                  "lat": 38.117922,
                  "lng": 128.620259
                },
                {
                  "name": "둔전리",
                  "kind": "ri",
                  "children": [],
                  "lat": 38.127916,
                  "lng": 128.512825
                },
                {
                  "name": "물갑리",
                  "kind": "ri",
                  "children": [],
                  "lat": 38.116883,
                  "lng": 128.525643
                },
                {
                  "name": "물치리",
                  "kind": "ri",
                  "children": [],
                  "lat": 38.155994,
                  "lng": 128.605218
                },
                {
                  "name": "방축리",
                  "kind": "ri",
                  "children": [],
                  "lat": 38.116929,
                  "lng": 128.606115
                },
                {
                  "name": "사교리",
                  "kind": "ri",
                  "children": [],
                  "lat": 38.112351,
                  "lng": 128.583564
                },
                {
                  "name": "상복리",
                  "kind": "ri",
                  "children": [],
                  "lat": 38.143038,
                  "lng": 128.549124
                },
                {
                  "name": "석교리",
                  "kind": "ri",
                  "children": [],
                  "lat": 38.126322,
                  "lng": 128.573815
                },
                {
                  "name": "용호리",
                  "kind": "ri",
                  "children": [],
                  "lat": 38.128597,
                  "lng": 128.611574
                },
                {
                  "name": "장산리",
                  "kind": "ri",
                  "children": [],
                  "lat": 38.137232,
                  "lng": 128.593157
                },
                {
                  "name": "적은리",
                  "kind": "ri",
                  "children": [],
                  "lat": 38.122037,
                  "lng": 128.59589
                },
                {
                  "name": "전진리",
                  "kind": "ri",
                  "children": [],
                  "lat": 38.123793,
                  "lng": 128.626418
                },
                {
                  "name": "정암리",
                  "kind": "ri",
                  "children": [],
                  "lat": 38.140984,
                  "lng": 128.60687
                },
                {
                  "name": "주청리",
                  "kind": "ri",
                  "children": [],
                  "lat": 38.11604,
                  "lng": 128.629067
                },
                {
                  "name": "중복리",
                  "kind": "ri",
                  "children": [],
                  "lat": 38.138301,
                  "lng": 128.56082
                },
                {
                  "name": "침교리",
                  "kind": "ri",
                  "children": [],
                  "lat": 38.121179,
                  "lng": 128.585997
                },
                {
                  "name": "하복리",
                  "kind": "ri",
                  "children": [],
                  "lat": 38.146641,
                  "lng": 128.578164
                },
                {
                  "name": "회룡리",
                  "kind": "ri",
                  "children": [],
                  "lat": 38.132206,
                  "lng": 128.57079
                }
              ],
              "lat": 38.129286,
              "lng": 128.560558
            },
            {
              "name": "서면",
              "kind": "myeon",
              "children": [
                {
                  "name": "가라피리",
                  "kind": "ri",
                  "children": [],
                  "lat": 38.0807,
                  "lng": 128.524053
                },
                {
                  "name": "갈천리",
                  "kind": "ri",
                  "children": [],
                  "lat": 37.91007,
                  "lng": 128.503173
                },
                {
                  "name": "공수전리",
                  "kind": "ri",
                  "children": [],
                  "lat": 38.037568,
                  "lng": 128.547639
                },
                {
                  "name": "내현리",
                  "kind": "ri",
                  "children": [],
                  "lat": 38.001254,
                  "lng": 128.59728
                },
                {
                  "name": "논화리",
                  "kind": "ri",
                  "children": [],
                  "lat": 38.06795,
                  "lng": 128.558274
                },
                {
                  "name": "미천리",
                  "kind": "ri",
                  "children": [],
                  "lat": 37.921596,
                  "lng": 128.547083
                },
                {
                  "name": "범부리",
                  "kind": "ri",
                  "children": [],
                  "lat": 38.057955,
                  "lng": 128.588463
                },
                {
                  "name": "북암리",
                  "kind": "ri",
                  "children": [],
                  "lat": 38.052785,
                  "lng": 128.516715
                },
                {
                  "name": "북평리",
                  "kind": "ri",
                  "children": [],
                  "lat": 38.068087,
                  "lng": 128.601385
                },
                {
                  "name": "상평리",
                  "kind": "ri",
                  "children": [],
                  "lat": 38.066926,
                  "lng": 128.581571
                },
                {
                  "name": "서림리",
                  "kind": "ri",
                  "children": [],
                  "lat": 37.968328,
                  "lng": 128.53272
                },
                {
                  "name": "서선리",
                  "kind": "ri",
                  "children": [],
                  "lat": 38.089261,
                  "lng": 128.566612
                },